{
"type": "FeatureCollection",
"name": "Polling_Places%2C_Saint_Louis_County%2C_MN",
"crs": { "type": "name", "properties": { "name": "urn:ogc:def:crs:OGC:1.3:CRS84" } },
"features": [
{ "type": "Feature", "properties": { "OBJECTID": 1, "NAME": "Alborn Community Center", "FULLADD": "6388 HWY 7", "CITY": "Alborn", "STATE": "MN", "PRECINCTCODE": "0010", "POLLINGPLACEID": "12657" }, "geometry": { "type": "Point", "coordinates": [ -92.568834992125787, 46.973146708820074 ] } },
{ "type": "Feature", "properties": { "OBJECTID": 2, "NAME": "Alden Town Hall", "FULLADD": "7404 LAINE RD", "CITY": "Two Harbors", "STATE": "MN", "PRECINCTCODE": "0015", "POLLINGPLACEID": "12658" }, "geometry": { "type": "Point", "coordinates": [ -91.804678360636643, 47.047377400229813 ] } },
{ "type": "Feature", "properties": { "OBJECTID": 3, "NAME": "Angora Town Hall", "FULLADD": "8936 HWY 1", "CITY": "Angora", "STATE": "MN", "PRECINCTCODE": "0020", "POLLINGPLACEID": "16039" }, "geometry": { "type": "Point", "coordinates": [ -92.635303977717612, 47.774185439054058 ] } },
{ "type": "Feature", "properties": { "OBJECTID": 4, "NAME": "Arrowhead Town Hall", "FULLADD": "9798 HWY 2", "CITY": "Brookston", "STATE": "MN", "PRECINCTCODE": "0025", "POLLINGPLACEID": "15916" }, "geometry": { "type": "Point", "coordinates": [ -92.711308981167747, 46.853826592508334 ] } },
{ "type": "Feature", "properties": { "OBJECTID": 5, "NAME": "Asbury United Methodist Church", "FULLADD": "6822 GRAND AVE", "CITY": "Duluth", "STATE": "MN", "PRECINCTCODE": "0315", "POLLINGPLACEID": "30619" }, "geometry": { "type": "Point", "coordinates": [ -92.184347877654901, 46.727673359258723 ] } },
{ "type": "Feature", "properties": { "OBJECTID": 6, "NAME": "Ault Town Hall", "FULLADD": "1839 BRIMSON RD", "CITY": "Brimson", "STATE": "MN", "PRECINCTCODE": "0030", "POLLINGPLACEID": "15894" }, "geometry": { "type": "Point", "coordinates": [ -91.870323878232284, 47.275598842007732 ] } },
{ "type": "Feature", "properties": { "OBJECTID": 7, "NAME": "Aurora Community Center/Senior Building", "FULLADD": "15 W 1ST AVE N", "CITY": "Aurora", "STATE": "MN", "PRECINCTCODE": "1130", "POLLINGPLACEID": "13444" }, "geometry": { "type": "Point", "coordinates": [ -92.237171153911689, 47.527977546269071 ] } },
{ "type": "Feature", "properties": { "OBJECTID": 8, "NAME": "Babbit City Hall", "FULLADD": "71 SOUTH DR", "CITY": "Babbitt", "STATE": "MN", "PRECINCTCODE": "0035", "POLLINGPLACEID": "13268" }, "geometry": { "type": "Point", "coordinates": [ -91.939476741991285, 47.707645708930208 ] } },
{ "type": "Feature", "properties": { "OBJECTID": 9, "NAME": "Balkan Township Community Center", "FULLADD": "6061 HWY 73 N", "CITY": "Chisholm", "STATE": "MN", "PRECINCTCODE": "0040", "POLLINGPLACEID": "30433" }, "geometry": { "type": "Point", "coordinates": [ -92.875040305316816, 47.556039743573514 ] } },
{ "type": "Feature", "properties": { "OBJECTID": 10, "NAME": "Bassett Town Hall", "FULLADD": "1434 TOWN LINE RD", "CITY": "Brimson", "STATE": "MN", "PRECINCTCODE": "0045", "POLLINGPLACEID": "12786" }, "geometry": { "type": "Point", "coordinates": [ -91.827683628225543, 47.386979606604868 ] } },
{ "type": "Feature", "properties": { "OBJECTID": 11, "NAME": "Zenith Terrace Community Center", "FULLADD": "2 FOXTAIL AVE", "CITY": "Duluth", "STATE": "MN", "PRECINCTCODE": "0305", "POLLINGPLACEID": "12795" }, "geometry": { "type": "Point", "coordinates": [ -92.211057064125214, 46.738986881693968 ] } },
{ "type": "Feature", "properties": { "OBJECTID": 12, "NAME": "Beatty Town Hall", "FULLADD": "8835 BEATTY RD", "CITY": "Cook", "STATE": "MN", "PRECINCTCODE": "0050", "POLLINGPLACEID": "12801" }, "geometry": { "type": "Point", "coordinates": [ -92.624384039711813, 47.890279350162615 ] } },
{ "type": "Feature", "properties": { "OBJECTID": 13, "NAME": "Biwabik Town Hall", "FULLADD": "6555 OAK DR", "CITY": "Gilbert", "STATE": "MN", "PRECINCTCODE": "0060", "POLLINGPLACEID": "12879" }, "geometry": { "type": "Point", "coordinates": [ -92.372311737125756, 47.473692959625815 ] } },
{ "type": "Feature", "properties": { "OBJECTID": 14, "NAME": "Breitung Community Center", "FULLADD": "33 1ST AVE", "CITY": "Soudan", "STATE": "MN", "PRECINCTCODE": "0065", "POLLINGPLACEID": "16043" }, "geometry": { "type": "Point", "coordinates": [ -92.23672694701267, 47.817411358373924 ] } },
{ "type": "Feature", "properties": { "OBJECTID": 15, "NAME": "Mail Ballot Precinct -Brevator", "FULLADD": "100 N 5TH AVE W, #214", "CITY": "Duluth", "STATE": "MN", "PRECINCTCODE": "0070", "POLLINGPLACEID": "32512" }, "geometry": { "type": "Point", "coordinates": [ -92.106615349170198, 46.78353061944636 ] } },
{ "type": "Feature", "properties": { "OBJECTID": 16, "NAME": "Brookston City Hall", "FULLADD": "8757 1ST ST S", "CITY": "Brookston", "STATE": "MN", "PRECINCTCODE": "0075", "POLLINGPLACEID": "13220" }, "geometry": { "type": "Point", "coordinates": [ -92.602743679649322, 46.86663498581467 ] } },
{ "type": "Feature", "properties": { "OBJECTID": 17, "NAME": "Buhl Senior Citizen Center", "FULLADD": "302 FRANTZ AVE", "CITY": "Buhl", "STATE": "MN", "PRECINCTCODE": "0080", "POLLINGPLACEID": "12977" }, "geometry": { "type": "Point", "coordinates": [ -92.776668244969642, 47.494355981784409 ] } },
{ "type": "Feature", "properties": { "OBJECTID": 18, "NAME": "Buyck Volunteer Fire Dept Garage", "FULLADD": "8035 ORR-BUYCK RD", "CITY": "Buyck", "STATE": "MN", "PRECINCTCODE": "0885", "POLLINGPLACEID": "30052" }, "geometry": { "type": "Point", "coordinates": [ -92.551899683243462, 48.110969315259062 ] } },
{ "type": "Feature", "properties": { "OBJECTID": 19, "NAME": "Camp 5 Town Hall", "FULLADD": "6560 COUNTY RD 180", "CITY": "Orr", "STATE": "MN", "PRECINCTCODE": "1011", "POLLINGPLACEID": "14491" }, "geometry": { "type": "Point", "coordinates": [ -92.774541221885187, 48.206561145456689 ] } },
{ "type": "Feature", "properties": { "OBJECTID": 20, "NAME": "Canosia Town Hall", "FULLADD": "4896 MIDWAY RD", "CITY": "Duluth", "STATE": "MN", "PRECINCTCODE": "0085", "POLLINGPLACEID": "13039" }, "geometry": { "type": "Point", "coordinates": [ -92.280095703356736, 46.865181312330499 ] } },
{ "type": "Feature", "properties": { "OBJECTID": 21, "NAME": "Ceday Valley Town Hall", "FULLADD": "8005 CEDAR VALLEY RD", "CITY": "Floodwood", "STATE": "MN", "PRECINCTCODE": "0090", "POLLINGPLACEID": "13075" }, "geometry": { "type": "Point", "coordinates": [ -93.021942042682127, 47.092534026656921 ] } },
{ "type": "Feature", "properties": { "OBJECTID": 22, "NAME": "Cherry Community Center", "FULLADD": "9831 HWY 37", "CITY": "Iron", "STATE": "MN", "PRECINCTCODE": "0095", "POLLINGPLACEID": "13114" }, "geometry": { "type": "Point", "coordinates": [ -92.720977178455755, 47.401649542070643 ] } },
{ "type": "Feature", "properties": { "OBJECTID": 23, "NAME": "Chisholm Sports Arena", "FULLADD": "600 1ST ST NW", "CITY": "Chisholm", "STATE": "MN", "PRECINCTCODE": "0100", "POLLINGPLACEID": "13125" }, "geometry": { "type": "Point", "coordinates": [ -92.887006872531884, 47.490462656602361 ] } },
{ "type": "Feature", "properties": { "OBJECTID": 24, "NAME": "Chisholm-Hibbing Airport", "FULLADD": "11038 E HWY 37", "CITY": "Hibbing", "STATE": "MN", "PRECINCTCODE": "0635", "POLLINGPLACEID": "13126" }, "geometry": { "type": "Point", "coordinates": [ -92.841638854773649, 47.393522296502923 ] } },
{ "type": "Feature", "properties": { "OBJECTID": 25, "NAME": "Christ Lutheran Church", "FULLADD": "2415 ENSIGN ST", "CITY": "Duluth", "STATE": "MN", "PRECINCTCODE": "0270", "POLLINGPLACEID": "15181" }, "geometry": { "type": "Point", "coordinates": [ -92.159742403190734, 46.784398488060702 ] } },
{ "type": "Feature", "properties": { "OBJECTID": 26, "NAME": "City Center West", "FULLADD": "5830 GRAND AVE", "CITY": "Duluth", "STATE": "MN", "PRECINCTCODE": "0290", "POLLINGPLACEID": "26667" }, "geometry": { "type": "Point", "coordinates": [ -92.171471999532116, 46.737027507004385 ] } },
{ "type": "Feature", "properties": { "OBJECTID": 27, "NAME": "Mail Ballot Precinct - Iron Junction", "FULLADD": "100 N 5TH AVE W, #214", "CITY": "Duluth", "STATE": "MN", "PRECINCTCODE": "0755", "POLLINGPLACEID": "32027" }, "geometry": { "type": "Point", "coordinates": [ -92.106615349170198, 46.78353061944636 ] } },
{ "type": "Feature", "properties": { "OBJECTID": 28, "NAME": "City/Town Government Center", "FULLADD": "16 W 2ND AVE N", "CITY": "Aurora", "STATE": "MN", "PRECINCTCODE": "1136", "POLLINGPLACEID": "13338" }, "geometry": { "type": "Point", "coordinates": [ -92.237995734862849, 47.529155362410563 ] } },
{ "type": "Feature", "properties": { "OBJECTID": 29, "NAME": "Clinton Community Building", "FULLADD": "8907 HWY 37", "CITY": "Iron", "STATE": "MN", "PRECINCTCODE": "0115", "POLLINGPLACEID": "13389" }, "geometry": { "type": "Point", "coordinates": [ -92.624489901727188, 47.401660647140879 ] } },
{ "type": "Feature", "properties": { "OBJECTID": 30, "NAME": "Miners Memorial Building", "FULLADD": "601 9TH AVE S", "CITY": "Virginia", "STATE": "MN", "PRECINCTCODE": "1050", "POLLINGPLACEID": "14803" }, "geometry": { "type": "Point", "coordinates": [ -92.547124279889772, 47.517007923937911 ] } },
{ "type": "Feature", "properties": { "OBJECTID": 31, "NAME": "Colvin Town Hall", "FULLADD": "2579 VERMILION TRL", "CITY": "Makinen", "STATE": "MN", "PRECINCTCODE": "0120", "POLLINGPLACEID": "13378" }, "geometry": { "type": "Point", "coordinates": [ -92.221627493135671, 47.306811956463086 ] } },
{ "type": "Feature", "properties": { "OBJECTID": 32, "NAME": "Cook Community Center", "FULLADD": "510 GOPHER DR", "CITY": "Cook", "STATE": "MN", "PRECINCTCODE": "0125", "POLLINGPLACEID": "13460" }, "geometry": { "type": "Point", "coordinates": [ -92.678080043434719, 47.84902645181873 ] } },
{ "type": "Feature", "properties": { "OBJECTID": 33, "NAME": "Cotton Community Center", "FULLADD": "9087 HWY 53", "CITY": "Cotton", "STATE": "MN", "PRECINCTCODE": "0130", "POLLINGPLACEID": "13474" }, "geometry": { "type": "Point", "coordinates": [ -92.477093388113886, 47.168071163835307 ] } },
{ "type": "Feature", "properties": { "OBJECTID": 34, "NAME": "Crane Lake Chapel Fellowship Hall", "FULLADD": "7399 HANDBERG RD", "CITY": "Crane Lake", "STATE": "MN", "PRECINCTCODE": "0133", "POLLINGPLACEID": "27067" }, "geometry": { "type": "Point", "coordinates": [ -92.487871525190499, 48.26070689551814 ] } },
{ "type": "Feature", "properties": { "OBJECTID": 35, "NAME": "Culver Fire Hall", "FULLADD": "5292 HWY 31", "CITY": "Brookston", "STATE": "MN", "PRECINCTCODE": "0135", "POLLINGPLACEID": "13527" }, "geometry": { "type": "Point", "coordinates": [ -92.601567431674496, 46.897017055846312 ] } },
{ "type": "Feature", "properties": { "OBJECTID": 36, "NAME": "Duluth Congregational Chutch", "FULLADD": "3833 E SUPERIOR ST", "CITY": "Duluth", "STATE": "MN", "PRECINCTCODE": "0175", "POLLINGPLACEID": "13458" }, "geometry": { "type": "Point", "coordinates": [ -92.049682550347413, 46.824352862885902 ] } },
{ "type": "Feature", "properties": { "OBJECTID": 37, "NAME": "Holy Cross Lutheran Church", "FULLADD": "410 N ARLINGTON AVE", "CITY": "Duluth", "STATE": "MN", "PRECINCTCODE": "0260", "POLLINGPLACEID": "13613" }, "geometry": { "type": "Point", "coordinates": [ -92.13162456390873, 46.802416174311233 ] } },
{ "type": "Feature", "properties": { "OBJECTID": 38, "NAME": "Duluth Public Library", "FULLADD": "520 W SUPERIOR ST", "CITY": "Duluth", "STATE": "MN", "PRECINCTCODE": "0245", "POLLINGPLACEID": "13614" }, "geometry": { "type": "Point", "coordinates": [ -92.104926076757636, 46.781382636381807 ] } },
{ "type": "Feature", "properties": { "OBJECTID": 39, "NAME": "Duluth Township Hall", "FULLADD": "6092 HOMESTEAD RD", "CITY": "Duluth", "STATE": "MN", "PRECINCTCODE": "0435", "POLLINGPLACEID": "15912" }, "geometry": { "type": "Point", "coordinates": [ -91.846785269258788, 46.952310325295748 ] } },
{ "type": "Feature", "properties": { "OBJECTID": 40, "NAME": "Mail Ballot Precinct - Eagles Nest Twp", "FULLADD": "100 N 5TH AVE W, #214", "CITY": "Ely", "STATE": "MN", "PRECINCTCODE": "0437", "POLLINGPLACEID": "32311" }, "geometry": { "type": "Point", "coordinates": [ -92.106615349170198, 46.78353061944636 ] } },
{ "type": "Feature", "properties": { "OBJECTID": 41, "NAME": "Elim Lutheran Church", "FULLADD": "6101 CODY ST", "CITY": "Duluth", "STATE": "MN", "PRECINCTCODE": "0300", "POLLINGPLACEID": "13690" }, "geometry": { "type": "Point", "coordinates": [ -92.175444719753756, 46.741560839492649 ] } },
{ "type": "Feature", "properties": { "OBJECTID": 42, "NAME": "Ellsburg Town Hall", "FULLADD": "1767 MELRUDE RD", "CITY": "Melrude", "STATE": "MN", "PRECINCTCODE": "0440", "POLLINGPLACEID": "15892" }, "geometry": { "type": "Point", "coordinates": [ -92.418347606161362, 47.246489703852554 ] } },
{ "type": "Feature", "properties": { "OBJECTID": 43, "NAME": "Elmer Fire Hall", "FULLADD": "7882 HWY 5", "CITY": "Meadowlands", "STATE": "MN", "PRECINCTCODE": "0445", "POLLINGPLACEID": "13709" }, "geometry": { "type": "Point", "coordinates": [ -92.791639808613695, 47.082426007613542 ] } },
{ "type": "Feature", "properties": { "OBJECTID": 44, "NAME": "Ely Senior Citizens Building", "FULLADD": "27 S 1ST AVE", "CITY": "Ely", "STATE": "MN", "PRECINCTCODE": "0450", "POLLINGPLACEID": "25980" }, "geometry": { "type": "Point", "coordinates": [ -91.865810780657185, 47.901752755248673 ] } },
{ "type": "Feature", "properties": { "OBJECTID": 45, "NAME": "Embarrass Town Hall", "FULLADD": "7503 LEVANDER RD", "CITY": "Embarrass", "STATE": "MN", "PRECINCTCODE": "0470", "POLLINGPLACEID": "13718" }, "geometry": { "type": "Point", "coordinates": [ -92.279597186962633, 47.661655926829873 ] } },
{ "type": "Feature", "properties": { "OBJECTID": 46, "NAME": "Eveleth City Auditorium", "FULLADD": "421 JACKSON ST", "CITY": "Eveleth", "STATE": "MN", "PRECINCTCODE": "0475", "POLLINGPLACEID": "13238" }, "geometry": { "type": "Point", "coordinates": [ -92.538751070013262, 47.464549984630068 ] } },
{ "type": "Feature", "properties": { "OBJECTID": 47, "NAME": "Evergreen Volunteer Fire Hall", "FULLADD": "10233 HWY 65", "CITY": "Britt", "STATE": "MN", "PRECINCTCODE": "0971", "POLLINGPLACEID": "13756" }, "geometry": { "type": "Point", "coordinates": [ -92.768282995373411, 47.673782566942386 ] } },
{ "type": "Feature", "properties": { "OBJECTID": 48, "NAME": "Fairbanks - Petrell Hall", "FULLADD": "3345 BRIMSON TOIMI RD", "CITY": "Brimson", "STATE": "MN", "PRECINCTCODE": "0505", "POLLINGPLACEID": "15174" }, "geometry": { "type": "Point", "coordinates": [ -91.835382422205939, 47.357850200474999 ] } },
{ "type": "Feature", "properties": { "OBJECTID": 49, "NAME": "Our Savior's Evangelical Lutheran Church (ELCA)", "FULLADD": "4831 GRAND AVE", "CITY": "Duluth", "STATE": "MN", "PRECINCTCODE": "0295", "POLLINGPLACEID": "32541" }, "geometry": { "type": "Point", "coordinates": [ -92.163414628432804, 46.743599302711999 ] } },
{ "type": "Feature", "properties": { "OBJECTID": 50, "NAME": "Faith Lutheran Church", "FULLADD": "1814 N 51ST AVE E", "CITY": "Duluth", "STATE": "MN", "PRECINCTCODE": "0155", "POLLINGPLACEID": "26663" }, "geometry": { "type": "Point", "coordinates": [ -92.022160003030493, 46.840931863808613 ] } },
{ "type": "Feature", "properties": { "OBJECTID": 51, "NAME": "Fayal Town Hall", "FULLADD": "4375 SHADY LN", "CITY": "Eveleth", "STATE": "MN", "PRECINCTCODE": "0510", "POLLINGPLACEID": "13797" }, "geometry": { "type": "Point", "coordinates": [ -92.501892376416791, 47.436698874329458 ] } },
{ "type": "Feature", "properties": { "OBJECTID": 52, "NAME": "Field Town Hall", "FULLADD": "1627 HWY 25", "CITY": "Cook", "STATE": "MN", "PRECINCTCODE": "0515", "POLLINGPLACEID": "13808" }, "geometry": { "type": "Point", "coordinates": [ -92.729611440820051, 47.833778758313549 ] } },
{ "type": "Feature", "properties": { "OBJECTID": 53, "NAME": "Fine Lakes Town Hall", "FULLADD": "3726 PRAIRIE LAKE RD", "CITY": "Wright", "STATE": "MN", "PRECINCTCODE": "0520", "POLLINGPLACEID": "13812" }, "geometry": { "type": "Point", "coordinates": [ -92.923424586773592, 46.78169848957053 ] } },
{ "type": "Feature", "properties": { "OBJECTID": 54, "NAME": "First Lutheran Church", "FULLADD": "1100 E SUPERIOR ST", "CITY": "Duluth", "STATE": "MN", "PRECINCTCODE": "0210", "POLLINGPLACEID": "30616" }, "geometry": { "type": "Point", "coordinates": [ -92.083848793291665, 46.797311320984292 ] } },
{ "type": "Feature", "properties": { "OBJECTID": 55, "NAME": "First United Methodist/Copper Top Church", "FULLADD": "230 E SKYLINE PKWY", "CITY": "Duluth", "STATE": "MN", "PRECINCTCODE": "0220", "POLLINGPLACEID": "13875" }, "geometry": { "type": "Point", "coordinates": [ -92.10602208801123, 46.796485639141217 ] } },
{ "type": "Feature", "properties": { "OBJECTID": 56, "NAME": "Mail Ballot Precinct - Floodwood City P-1", "FULLADD": "100 N 5TH AVE W, #214", "CITY": "Duluth", "STATE": "MN", "PRECINCTCODE": "0525", "POLLINGPLACEID": "32688" }, "geometry": { "type": "Point", "coordinates": [ -92.106615349170198, 46.78353061944636 ] } },
{ "type": "Feature", "properties": { "OBJECTID": 57, "NAME": "Mail Ballot Precinct - Floodwood Twp P-2", "FULLADD": "100 N 5TH AVE W, #214", "CITY": "Duluth", "STATE": "MN", "PRECINCTCODE": "0530", "POLLINGPLACEID": "13222" }, "geometry": { "type": "Point", "coordinates": [ -92.102713929837947, 46.788741589902735 ] } },
{ "type": "Feature", "properties": { "OBJECTID": 58, "NAME": "Frednenberg Community Center", "FULLADD": "5104 FISH LAKE RD", "CITY": "Duluth", "STATE": "MN", "PRECINCTCODE": "0540", "POLLINGPLACEID": "13407" }, "geometry": { "type": "Point", "coordinates": [ -92.218121999671681, 46.973660995797758 ] } },
{ "type": "Feature", "properties": { "OBJECTID": 59, "NAME": "French - Side Lake Rec Building", "FULLADD": "7548 HWY 5", "CITY": "Side Lake", "STATE": "MN", "PRECINCTCODE": "0545", "POLLINGPLACEID": "15569" }, "geometry": { "type": "Point", "coordinates": [ -93.012437388882191, 47.665933694413624 ] } },
{ "type": "Feature", "properties": { "OBJECTID": 60, "NAME": "Gary New Duluth Recreation Center", "FULLADD": "801 101ST AVE W", "CITY": "Duluth", "STATE": "MN", "PRECINCTCODE": "0325", "POLLINGPLACEID": "15792" }, "geometry": { "type": "Point", "coordinates": [ -92.228266193571855, 46.665076287207782 ] } },
{ "type": "Feature", "properties": { "OBJECTID": 61, "NAME": "Gilbert City Hall", "FULLADD": "16 S BROADWAY ST ", "CITY": "Gilbert", "STATE": "MN", "PRECINCTCODE": "0550", "POLLINGPLACEID": "13971" }, "geometry": { "type": "Point", "coordinates": [ -92.467026915627585, 47.487104907321175 ] } },
{ "type": "Feature", "properties": { "OBJECTID": 62, "NAME": "Glen Avon Presbyterian Church", "FULLADD": "2105 WOODLAND AVE", "CITY": "Duluth", "STATE": "MN", "PRECINCTCODE": "0170", "POLLINGPLACEID": "13979" }, "geometry": { "type": "Point", "coordinates": [ -92.071445679479652, 46.82969106012839 ] } },
{ "type": "Feature", "properties": { "OBJECTID": 63, "NAME": "Gnesen Community Center", "FULLADD": "6356 HOWARD GNESEN RD", "CITY": "Duluth", "STATE": "MN", "PRECINCTCODE": "0565", "POLLINGPLACEID": "13993" }, "geometry": { "type": "Point", "coordinates": [ -92.110804680286577, 46.971872811074427 ] } },
{ "type": "Feature", "properties": { "OBJECTID": 64, "NAME": "Goodfellowship Community Center", "FULLADD": "1242 88TH AVE W", "CITY": "Duluth", "STATE": "MN", "PRECINCTCODE": "0320", "POLLINGPLACEID": "14010" }, "geometry": { "type": "Point", "coordinates": [ -92.209471684032877, 46.687488479255066 ] } },
{ "type": "Feature", "properties": { "OBJECTID": 65, "NAME": "Grace Lutheran Church", "FULLADD": "5454 MILLER TRUNK HWY", "CITY": "Hermantown", "STATE": "MN", "PRECINCTCODE": "0600", "POLLINGPLACEID": "13832" }, "geometry": { "type": "Point", "coordinates": [ -92.252775403006154, 46.84090843779471 ] } },
{ "type": "Feature", "properties": { "OBJECTID": 66, "NAME": "Grand Lake Town Hall", "FULLADD": "5297 HWY 53", "CITY": "Saginaw", "STATE": "MN", "PRECINCTCODE": "0570", "POLLINGPLACEID": "14036" }, "geometry": { "type": "Point", "coordinates": [ -92.364372674302231, 46.89347437975298 ] } },
{ "type": "Feature", "properties": { "OBJECTID": 67, "NAME": "Great Scott Town Hall", "FULLADD": "404 Main St", "CITY": "Kinney", "STATE": "MN", "PRECINCTCODE": "0575", "POLLINGPLACEID": "32516" }, "geometry": { "type": "Point", "coordinates": [ -92.728470799475502, 47.513994586242227 ] } },
{ "type": "Feature", "properties": { "OBJECTID": 68, "NAME": "Great Scott Town Hall", "FULLADD": "404 Main St", "CITY": "Kinney", "STATE": "MN", "PRECINCTCODE": "0580", "POLLINGPLACEID": "32517" }, "geometry": { "type": "Point", "coordinates": [ -92.728470799475502, 47.513994586242227 ] } },
{ "type": "Feature", "properties": { "OBJECTID": 69, "NAME": "Greenwood Town Hall", "FULLADD": "3000 CO RD 77", "CITY": "Tower", "STATE": "MN", "PRECINCTCODE": "0585", "POLLINGPLACEID": "14065" }, "geometry": { "type": "Point", "coordinates": [ -92.399314137680676, 47.850590048301136 ] } },
{ "type": "Feature", "properties": { "OBJECTID": 70, "NAME": "Halden Town Hall", "FULLADD": "5523 SAVANNA RD", "CITY": "Floodwood", "STATE": "MN", "PRECINCTCODE": "0590", "POLLINGPLACEID": "14086" }, "geometry": { "type": "Point", "coordinates": [ -92.953497948264697, 46.912166239743392 ] } },
{ "type": "Feature", "properties": { "OBJECTID": 71, "NAME": "Harrison Community Club", "FULLADD": "3002 W 3RD ST", "CITY": "Duluth", "STATE": "MN", "PRECINCTCODE": "0285", "POLLINGPLACEID": "14122" }, "geometry": { "type": "Point", "coordinates": [ -92.138256931657722, 46.760401488809691 ] } },
{ "type": "Feature", "properties": { "OBJECTID": 72, "NAME": "Hermantown City Hall", "FULLADD": "5105 MAPLE GROVE RD", "CITY": "Hermantown", "STATE": "MN", "PRECINCTCODE": "0595", "POLLINGPLACEID": "14178" }, "geometry": { "type": "Point", "coordinates": [ -92.21948701711635, 46.809151479600047 ] } },
{ "type": "Feature", "properties": { "OBJECTID": 73, "NAME": "Hibbing Memorial Building", "FULLADD": "400 E 23RD ST", "CITY": "Hibbing", "STATE": "MN", "PRECINCTCODE": "0620", "POLLINGPLACEID": "14772" }, "geometry": { "type": "Point", "coordinates": [ -92.93701452368164, 47.423322920195133 ] } },
{ "type": "Feature", "properties": { "OBJECTID": 74, "NAME": "Holy Family Catholic Church", "FULLADD": "2430 W 3RD ST", "CITY": "Duluth", "STATE": "MN", "PRECINCTCODE": "0280", "POLLINGPLACEID": "26666" }, "geometry": { "type": "Point", "coordinates": [ -92.131719054032018, 46.765197085788884 ] } },
{ "type": "Feature", "properties": { "OBJECTID": 75, "NAME": "Hoyt Lakes Arena", "FULLADD": "102 KENNEDY MEMORIAL DR", "CITY": "Hoyt Lakes", "STATE": "MN", "PRECINCTCODE": "0735", "POLLINGPLACEID": "12710" }, "geometry": { "type": "Point", "coordinates": [ -92.150298061621967, 47.517802228840459 ] } },
{ "type": "Feature", "properties": { "OBJECTID": 76, "NAME": "Industrial Community Center", "FULLADD": "7519 ALBERT RD", "CITY": "Saginaw", "STATE": "MN", "PRECINCTCODE": "0750", "POLLINGPLACEID": "13410" }, "geometry": { "type": "Point", "coordinates": [ -92.472378153108409, 46.866106520807207 ] } },
{ "type": "Feature", "properties": { "OBJECTID": 77, "NAME": "Irongate Mall", "FULLADD": "990 W 41ST ST", "CITY": "Hibbing", "STATE": "MN", "PRECINCTCODE": "0640", "POLLINGPLACEID": "14279" }, "geometry": { "type": "Point", "coordinates": [ -92.956142437951755, 47.398242617721422 ] } },
{ "type": "Feature", "properties": { "OBJECTID": 78, "NAME": "Kabetogama Town Hall", "FULLADD": "9707 GAMMA RD", "CITY": "Kabetogama", "STATE": "MN", "PRECINCTCODE": "1160", "POLLINGPLACEID": "14342" }, "geometry": { "type": "Point", "coordinates": [ -93.049473643593117, 48.429574312730082 ] } },
{ "type": "Feature", "properties": { "OBJECTID": 79, "NAME": "Kelly Lake Community Center", "FULLADD": "207 N 3RD AVE", "CITY": "Hibbing", "STATE": "MN", "PRECINCTCODE": "0625", "POLLINGPLACEID": "14361" }, "geometry": { "type": "Point", "coordinates": [ -93.009278476021862, 47.418160847380449 ] } },
{ "type": "Feature", "properties": { "OBJECTID": 80, "NAME": "Kelsey Town Hall", "FULLADD": "8734 HWY 29", "CITY": "Kelsey", "STATE": "MN", "PRECINCTCODE": "0760", "POLLINGPLACEID": "15915" }, "geometry": { "type": "Point", "coordinates": [ -92.603016522719116, 47.146713475780331 ] } },
{ "type": "Feature", "properties": { "OBJECTID": 81, "NAME": "Kulger Town Hall", "FULLADD": "9072 HWY 135 N", "CITY": "Tower", "STATE": "MN", "PRECINCTCODE": "0765", "POLLINGPLACEID": "14394" }, "geometry": { "type": "Point", "coordinates": [ -92.279193355694645, 47.769962244941482 ] } },
{ "type": "Feature", "properties": { "OBJECTID": 82, "NAME": "Lafayette Square", "FULLADD": "3026 MINNESOTA AVE", "CITY": "Duluth", "STATE": "MN", "PRECINCTCODE": "0240", "POLLINGPLACEID": "14404" }, "geometry": { "type": "Point", "coordinates": [ -92.072030825962159, 46.752162322152174 ] } },
{ "type": "Feature", "properties": { "OBJECTID": 83, "NAME": "Lakeland Fire Hall", "FULLADD": "4667 VERMILION TRL", "CITY": "Gilbert", "STATE": "MN", "PRECINCTCODE": "0960", "POLLINGPLACEID": "14442" }, "geometry": { "type": "Point", "coordinates": [ -92.348471728522213, 47.45625036842258 ] } },
{ "type": "Feature", "properties": { "OBJECTID": 84, "NAME": "Lakeside Presbyterian Church", "FULLADD": "4430 MCCULLOCH ST", "CITY": "Duluth", "STATE": "MN", "PRECINCTCODE": "0145", "POLLINGPLACEID": "14445" }, "geometry": { "type": "Point", "coordinates": [ -92.033384379174649, 46.829032655884816 ] } },
{ "type": "Feature", "properties": { "OBJECTID": 85, "NAME": "Lakeview Covenant Chruch", "FULLADD": "1001 JEAN DULUTH RD", "CITY": "Duluth", "STATE": "MN", "PRECINCTCODE": "0160", "POLLINGPLACEID": "14449" }, "geometry": { "type": "Point", "coordinates": [ -92.055994038666128, 46.837054514956115 ] } },
{ "type": "Feature", "properties": { "OBJECTID": 86, "NAME": "Lakewood Town Hall", "FULLADD": "3110 STRAND RD", "CITY": "Duluth", "STATE": "MN", "PRECINCTCODE": "0770", "POLLINGPLACEID": "14453" }, "geometry": { "type": "Point", "coordinates": [ -92.007030542275345, 46.887138884674989 ] } },
{ "type": "Feature", "properties": { "OBJECTID": 87, "NAME": "Lavell Town Hall", "FULLADD": "2189 HWY 5", "CITY": "Hibbing", "STATE": "MN", "PRECINCTCODE": "0775", "POLLINGPLACEID": "14472" }, "geometry": { "type": "Point", "coordinates": [ -92.810156764928422, 47.274867261931696 ] } },
{ "type": "Feature", "properties": { "OBJECTID": 88, "NAME": "Leiding Town Hall", "FULLADD": "10707 HWY 23", "CITY": "Orr", "STATE": "MN", "PRECINCTCODE": "0780", "POLLINGPLACEID": "32297" }, "geometry": { "type": "Point", "coordinates": [ -92.83020805740432, 48.053022348859045 ] } },
{ "type": "Feature", "properties": { "OBJECTID": 89, "NAME": "Leonidas Community Center", "FULLADD": "201 1ST ST N", "CITY": "Eveleth", "STATE": "MN", "PRECINCTCODE": "0480", "POLLINGPLACEID": "13864" }, "geometry": { "type": "Point", "coordinates": [ -92.573144037575773, 47.460201660063582 ] } },
{ "type": "Feature", "properties": { "OBJECTID": 90, "NAME": "Mail Ballot Precinct - Leonidas", "FULLADD": "100 N 5TH AVE W, #214", "CITY": "Duluth", "STATE": "MN", "PRECINCTCODE": "0785", "POLLINGPLACEID": "32191" }, "geometry": { "type": "Point", "coordinates": [ -92.106615349170198, 46.78353061944636 ] } },
{ "type": "Feature", "properties": { "OBJECTID": 91, "NAME": "Hibbing National Guard Armory", "FULLADD": "2310 BROOKLYN DR", "CITY": "Hibbing", "STATE": "MN", "PRECINCTCODE": "0615", "POLLINGPLACEID": "27168" }, "geometry": { "type": "Point", "coordinates": [ -92.925259923626754, 47.42339810797499 ] } },
{ "type": "Feature", "properties": { "OBJECTID": 92, "NAME": "Lincoln Park Senior Center", "FULLADD": "2014 W 3RD ST", "CITY": "Duluth", "STATE": "MN", "PRECINCTCODE": "0255", "POLLINGPLACEID": "14527" }, "geometry": { "type": "Point", "coordinates": [ -92.126513337225987, 46.769192363932547 ] } },
{ "type": "Feature", "properties": { "OBJECTID": 93, "NAME": "Linden Grove Town Hall", "FULLADD": "11105 HWY 1", "CITY": "Cook", "STATE": "MN", "PRECINCTCODE": "0790", "POLLINGPLACEID": "14533" }, "geometry": { "type": "Point", "coordinates": [ -92.871050293639655, 47.863503162454464 ] } },
{ "type": "Feature", "properties": { "OBJECTID": 94, "NAME": "Loon Lake Community Center", "FULLADD": "3816 HWY 100", "CITY": "Aurora", "STATE": "MN", "PRECINCTCODE": "1135", "POLLINGPLACEID": "14581" }, "geometry": { "type": "Point", "coordinates": [ -92.259961991906053, 47.392472266432272 ] } },
{ "type": "Feature", "properties": { "OBJECTID": 95, "NAME": "Lutheran Church of the Good Shepherd", "FULLADD": "1325 N 45TH AVE E", "CITY": "Duluth", "STATE": "MN", "PRECINCTCODE": "0150", "POLLINGPLACEID": "14007" }, "geometry": { "type": "Point", "coordinates": [ -92.033910630209419, 46.836076268355313 ] } },
{ "type": "Feature", "properties": { "OBJECTID": 96, "NAME": "Mail Ballot Precinct 1", "FULLADD": "100 N 5TH AVE W, # 214", "CITY": "Duluth", "STATE": "MN", "PRECINCTCODE": "0591", "POLLINGPLACEID": "14638" }, "geometry": { "type": "Point", "coordinates": [ -92.106615349170198, 46.78353061944636 ] } },
{ "type": "Feature", "properties": { "OBJECTID": 97, "NAME": "Mail Ballot Precinct 10", "FULLADD": "100 N 5TH AVE W, # 214", "CITY": "Duluth", "STATE": "MN", "PRECINCTCODE": "0979", "POLLINGPLACEID": "26546" }, "geometry": { "type": "Point", "coordinates": [ -92.106615349170198, 46.78353061944636 ] } },
{ "type": "Feature", "properties": { "OBJECTID": 98, "NAME": "Mail Ballot Precinct 11", "FULLADD": "100 N 5TH AVE W, # 214", "CITY": "Duluth", "STATE": "MN", "PRECINCTCODE": "0999", "POLLINGPLACEID": "26545" }, "geometry": { "type": "Point", "coordinates": [ -92.106615349170198, 46.78353061944636 ] } },
{ "type": "Feature", "properties": { "OBJECTID": 99, "NAME": "Mail Ballot Precinct 12", "FULLADD": "100 N 5TH AVE W, # 214", "CITY": "Duluth", "STATE": "MN", "PRECINCTCODE": "0990", "POLLINGPLACEID": "26546" }, "geometry": { "type": "Point", "coordinates": [ -92.106615349170198, 46.78353061944636 ] } },
{ "type": "Feature", "properties": { "OBJECTID": 100, "NAME": "Mail Ballot Precinct 13", "FULLADD": "100 N 5TH AVE W, # 214", "CITY": "Duluth", "STATE": "MN", "PRECINCTCODE": "1000", "POLLINGPLACEID": "26547" }, "geometry": { "type": "Point", "coordinates": [ -92.106615349170198, 46.78353061944636 ] } },
{ "type": "Feature", "properties": { "OBJECTID": 101, "NAME": "Mail Ballot Precinct 19", "FULLADD": "100 N 5TH AVE W, # 214", "CITY": "Duluth", "STATE": "MN", "PRECINCTCODE": "1001", "POLLINGPLACEID": "27632" }, "geometry": { "type": "Point", "coordinates": [ -92.106615349170198, 46.78353061944636 ] } },
{ "type": "Feature", "properties": { "OBJECTID": 102, "NAME": "Mail Ballot Precinct 2", "FULLADD": "100 N 5TH AVE W, # 214", "CITY": "Duluth", "STATE": "MN", "PRECINCTCODE": "0857", "POLLINGPLACEID": "14639" }, "geometry": { "type": "Point", "coordinates": [ -92.106615349170198, 46.78353061944636 ] } },
{ "type": "Feature", "properties": { "OBJECTID": 103, "NAME": "Mail Ballot Precinct 20", "FULLADD": "100 N 5TH AVE W, # 214", "CITY": "Duluth", "STATE": "MN", "PRECINCTCODE": "0976", "POLLINGPLACEID": "26544" }, "geometry": { "type": "Point", "coordinates": [ -92.106615349170198, 46.78353061944636 ] } },
{ "type": "Feature", "properties": { "OBJECTID": 104, "NAME": "Mail Ballot Precinct 21", "FULLADD": "100 N 5TH AVE W, # 214", "CITY": "Duluth", "STATE": "MN", "PRECINCTCODE": "1002", "POLLINGPLACEID": "26550" }, "geometry": { "type": "Point", "coordinates": [ -92.106615349170198, 46.78353061944636 ] } },
{ "type": "Feature", "properties": { "OBJECTID": 105, "NAME": "Mail Ballot Precinct 23", "FULLADD": "100 N 5TH AVE W, # 214", "CITY": "Duluth", "STATE": "MN", "PRECINCTCODE": "1005", "POLLINGPLACEID": "26639" }, "geometry": { "type": "Point", "coordinates": [ -92.106615349170198, 46.78353061944636 ] } },
{ "type": "Feature", "properties": { "OBJECTID": 106, "NAME": "Mail Ballot Precinct 3", "FULLADD": "100 N 5TH AVE W, # 214", "CITY": "Duluth", "STATE": "MN", "PRECINCTCODE": "0031", "POLLINGPLACEID": "14640" }, "geometry": { "type": "Point", "coordinates": [ -92.106615349170198, 46.78353061944636 ] } },
{ "type": "Feature", "properties": { "OBJECTID": 107, "NAME": "Mail Ballot Precinct 4", "FULLADD": "100 N 5TH AVE W, # 214", "CITY": "Duluth", "STATE": "MN", "PRECINCTCODE": "0945", "POLLINGPLACEID": "14641" }, "geometry": { "type": "Point", "coordinates": [ -92.106615349170198, 46.78353061944636 ] } },
{ "type": "Feature", "properties": { "OBJECTID": 108, "NAME": "Mail Ballot Precinct 5", "FULLADD": "100 N 5TH AVE W, # 214", "CITY": "Duluth", "STATE": "MN", "PRECINCTCODE": "0950", "POLLINGPLACEID": "14642" }, "geometry": { "type": "Point", "coordinates": [ -92.106615349170198, 46.78353061944636 ] } },
{ "type": "Feature", "properties": { "OBJECTID": 109, "NAME": "Mail Ballot Precinct 6", "FULLADD": "100 N 5TH AVE W, # 214", "CITY": "Duluth", "STATE": "MN", "PRECINCTCODE": "0962", "POLLINGPLACEID": "14650" }, "geometry": { "type": "Point", "coordinates": [ -92.106615349170198, 46.78353061944636 ] } },
{ "type": "Feature", "properties": { "OBJECTID": 110, "NAME": "Mail Ballot Precinct 7", "FULLADD": "100 N 5TH AVE W, # 214", "CITY": "Duluth", "STATE": "MN", "PRECINCTCODE": "0965", "POLLINGPLACEID": "26541" }, "geometry": { "type": "Point", "coordinates": [ -92.106615349170198, 46.78353061944636 ] } },
{ "type": "Feature", "properties": { "OBJECTID": 111, "NAME": "Mail Ballot Precinct 8", "FULLADD": "100 N 5TH AVE W, # 214", "CITY": "Duluth", "STATE": "MN", "PRECINCTCODE": "0973", "POLLINGPLACEID": "26542" }, "geometry": { "type": "Point", "coordinates": [ -92.106615349170198, 46.78353061944636 ] } },
{ "type": "Feature", "properties": { "OBJECTID": 112, "NAME": "Mail Ballot Precinct 9", "FULLADD": "100 N 5TH AVE W, # 214", "CITY": "Duluth", "STATE": "MN", "PRECINCTCODE": "0975", "POLLINGPLACEID": "26543" }, "geometry": { "type": "Point", "coordinates": [ -92.106615349170198, 46.78353061944636 ] } },
{ "type": "Feature", "properties": { "OBJECTID": 113, "NAME": "Makinen Community Center", "FULLADD": "6601 WILSON RD", "CITY": "Makinen", "STATE": "MN", "PRECINCTCODE": "1155", "POLLINGPLACEID": "14663" }, "geometry": { "type": "Point", "coordinates": [ -92.368712681150853, 47.357507423823826 ] } },
{ "type": "Feature", "properties": { "OBJECTID": 114, "NAME": "Maple Hill Community Club", "FULLADD": "12278 TOWNLINE RD", "CITY": "Hibbing", "STATE": "MN", "PRECINCTCODE": "0645", "POLLINGPLACEID": "14688" }, "geometry": { "type": "Point", "coordinates": [ -92.980034991865779, 47.37109836450837 ] } },
{ "type": "Feature", "properties": { "OBJECTID": 115, "NAME": "McDavitt Town Hall", "FULLADD": "9042 ZIM RD", "CITY": "Zim", "STATE": "MN", "PRECINCTCODE": "0795", "POLLINGPLACEID": "14738" }, "geometry": { "type": "Point", "coordinates": [ -92.635520258908073, 47.305482606252717 ] } },
{ "type": "Feature", "properties": { "OBJECTID": 116, "NAME": "Mail Ballot Precinct- McKinley", "FULLADD": "100 N 5TH AVE W, #214", "CITY": "Duluth", "STATE": "MN", "PRECINCTCODE": "0797", "POLLINGPLACEID": "32018" }, "geometry": { "type": "Point", "coordinates": [ -92.106615349170198, 46.78353061944636 ] } },
{ "type": "Feature", "properties": { "OBJECTID": 117, "NAME": "Meadowlands Community Center", "FULLADD": "7758 WESTERN AVE", "CITY": "Meadowlands", "STATE": "MN", "PRECINCTCODE": "0799", "POLLINGPLACEID": "13388" }, "geometry": { "type": "Point", "coordinates": [ -92.73373617606363, 47.073716735754012 ] } },
{ "type": "Feature", "properties": { "OBJECTID": 118, "NAME": "Meadowlands Community Center", "FULLADD": "7758 WESTERN AVE", "CITY": "Meadowlands", "STATE": "MN", "PRECINCTCODE": "0800", "POLLINGPLACEID": "13388" }, "geometry": { "type": "Point", "coordinates": [ -92.73373617606363, 47.073716735754012 ] } },
{ "type": "Feature", "properties": { "OBJECTID": 119, "NAME": "Midway Town Hall", "FULLADD": "3230 MIDWAY RD", "CITY": "Proctor", "STATE": "MN", "PRECINCTCODE": "0805", "POLLINGPLACEID": "26917" }, "geometry": { "type": "Point", "coordinates": [ -92.278134770646304, 46.74454282075348 ] } },
{ "type": "Feature", "properties": { "OBJECTID": 120, "NAME": "Morcom - Bear River Community Center", "FULLADD": "12512 HWY 22", "CITY": "Cook", "STATE": "MN", "PRECINCTCODE": "0810", "POLLINGPLACEID": "12800" }, "geometry": { "type": "Point", "coordinates": [ -93.021884349366729, 47.777331822653309 ] } },
{ "type": "Feature", "properties": { "OBJECTID": 121, "NAME": "Morse Town Hall", "FULLADD": "911 S CENTRAL AVE", "CITY": "Ely", "STATE": "MN", "PRECINCTCODE": "0815", "POLLINGPLACEID": "14860" }, "geometry": { "type": "Point", "coordinates": [ -91.86770377971834, 47.893594502633135 ] } },
{ "type": "Feature", "properties": { "OBJECTID": 122, "NAME": "Morse Town Hall", "FULLADD": "911 S CENTRAL AVE", "CITY": "Ely", "STATE": "MN", "PRECINCTCODE": "0821", "POLLINGPLACEID": "14860" }, "geometry": { "type": "Point", "coordinates": [ -91.86770377971834, 47.893594502633135 ] } },
{ "type": "Feature", "properties": { "OBJECTID": 123, "NAME": "Mt. Iron City Hall- Iroquois Room", "FULLADD": "8586 ENTERPRISE DR S", "CITY": "Mt. Iron", "STATE": "MN", "PRECINCTCODE": "0820", "POLLINGPLACEID": "13216" }, "geometry": { "type": "Point", "coordinates": [ -92.589770453125524, 47.518534654507633 ] } },
{ "type": "Feature", "properties": { "OBJECTID": 124, "NAME": "Mt. Iron City Hall- Wacootah Room", "FULLADD": "8586 ENTERPRISE DR S", "CITY": "Mt. Iron", "STATE": "MN", "PRECINCTCODE": "0825", "POLLINGPLACEID": "13215" }, "geometry": { "type": "Point", "coordinates": [ -92.589770453125524, 47.518534654507633 ] } },
{ "type": "Feature", "properties": { "OBJECTID": 125, "NAME": "Mt. Olive Lutheran Church", "FULLADD": "2012 E SUPERIOR ST", "CITY": "Duluth", "STATE": "MN", "PRECINCTCODE": "0205", "POLLINGPLACEID": "14881" }, "geometry": { "type": "Point", "coordinates": [ -92.072601478037782, 46.806147302525808 ] } },
{ "type": "Feature", "properties": { "OBJECTID": 126, "NAME": "New Independence Town Hall", "FULLADD": "7828 Swan Lake Rd", "CITY": "Culver", "STATE": "MN", "PRECINCTCODE": "0845", "POLLINGPLACEID": "32518" }, "geometry": { "type": "Point", "coordinates": [ -92.50543474224844, 46.960530136465771 ] } },
{ "type": "Feature", "properties": { "OBJECTID": 127, "NAME": "Normanna Town Hall", "FULLADD": "6472 FRENCH RIVER RD", "CITY": "Duluth ", "STATE": "MN", "PRECINCTCODE": "0850", "POLLINGPLACEID": "14992" }, "geometry": { "type": "Point", "coordinates": [ -91.994556794881447, 46.979509042732893 ] } },
{ "type": "Feature", "properties": { "OBJECTID": 128, "NAME": "Miners Memorial Building", "FULLADD": "601 9TH AVE S", "CITY": "Virginia", "STATE": "MN", "PRECINCTCODE": "1040", "POLLINGPLACEID": "14803" }, "geometry": { "type": "Point", "coordinates": [ -92.547124279889772, 47.517007923937911 ] } },
{ "type": "Feature", "properties": { "OBJECTID": 129, "NAME": "Miners Memorial Building", "FULLADD": "601 9TH AVE S", "CITY": "Virginia", "STATE": "MN", "PRECINCTCODE": "1045", "POLLINGPLACEID": "14803" }, "geometry": { "type": "Point", "coordinates": [ -92.547124279889772, 47.517007923937911 ] } },
{ "type": "Feature", "properties": { "OBJECTID": 130, "NAME": "Miners Memorial Building", "FULLADD": "601 9TH AVE S", "CITY": "Virginia", "STATE": "MN", "PRECINCTCODE": "1055", "POLLINGPLACEID": "14803" }, "geometry": { "type": "Point", "coordinates": [ -92.547124279889772, 47.517007923937911 ] } },
{ "type": "Feature", "properties": { "OBJECTID": 131, "NAME": "Miners Memorial Building", "FULLADD": "601 9TH AVE S", "CITY": "Virginia", "STATE": "MN", "PRECINCTCODE": "1060", "POLLINGPLACEID": "14803" }, "geometry": { "type": "Point", "coordinates": [ -92.547124279889772, 47.517007923937911 ] } },
{ "type": "Feature", "properties": { "OBJECTID": 132, "NAME": "North Star Town Hall", "FULLADD": "7700 Pequaywan Lake Rd", "CITY": "Duluth", "STATE": "MN", "PRECINCTCODE": "0852", "POLLINGPLACEID": "32513" }, "geometry": { "type": "Point", "coordinates": [ -91.983780240676765, 47.068196064258949 ] } },
{ "type": "Feature", "properties": { "OBJECTID": 133, "NAME": "Northland Town Hall", "FULLADD": "7271 HWY 53", "CITY": "Canyon", "STATE": "MN", "PRECINCTCODE": "0855", "POLLINGPLACEID": "13834" }, "geometry": { "type": "Point", "coordinates": [ -92.471737425428941, 47.03769712239135 ] } },
{ "type": "Feature", "properties": { "OBJECTID": 134, "NAME": "Orr City Hall", "FULLADD": "4429 HWY 53", "CITY": "Orr", "STATE": "MN", "PRECINCTCODE": "0860", "POLLINGPLACEID": "30422" }, "geometry": { "type": "Point", "coordinates": [ -92.833253145043273, 48.046184626996215 ] } },
{ "type": "Feature", "properties": { "OBJECTID": 135, "NAME": "Mail Ballot Precinct - Owens Twp", "FULLADD": "100 N 5TH AVE W, #214", "CITY": "Duluth", "STATE": "MN", "PRECINCTCODE": "0865", "POLLINGPLACEID": "31781" }, "geometry": { "type": "Point", "coordinates": [ -92.106615349170198, 46.78353061944636 ] } },
{ "type": "Feature", "properties": { "OBJECTID": 136, "NAME": "Park Pavilion", "FULLADD": "100 N 5TH AVE", "CITY": "Biwabik", "STATE": "MN", "PRECINCTCODE": "0055", "POLLINGPLACEID": "12878" }, "geometry": { "type": "Point", "coordinates": [ -92.342834421987277, 47.533697705300831 ] } },
{ "type": "Feature", "properties": { "OBJECTID": 137, "NAME": "Peace United Church", "FULLADD": "1111 N 11TH AVE E", "CITY": "Duluth", "STATE": "MN", "PRECINCTCODE": "0215", "POLLINGPLACEID": "15147" }, "geometry": { "type": "Point", "coordinates": [ -92.097576769587022, 46.804505193548884 ] } },
{ "type": "Feature", "properties": { "OBJECTID": 138, "NAME": "Pequaywan - Volunteer Fire Hall", "FULLADD": "8764 Pequaywan Lake Rd", "CITY": "Duluth", "STATE": "MN", "PRECINCTCODE": "0875", "POLLINGPLACEID": "32514" }, "geometry": { "type": "Point", "coordinates": [ -91.920285881789198, 47.142542921913083 ] } },
{ "type": "Feature", "properties": { "OBJECTID": 139, "NAME": "Pike Town Hall", "FULLADD": "6862 HWY 68", "CITY": "Embarrass", "STATE": "MN", "PRECINCTCODE": "0881", "POLLINGPLACEID": "15186" }, "geometry": { "type": "Point", "coordinates": [ -92.406392827098401, 47.654035728561674 ] } },
{ "type": "Feature", "properties": { "OBJECTID": 140, "NAME": "Pike Town Hall", "FULLADD": "6862 HWY 68", "CITY": "Embarrass", "STATE": "MN", "PRECINCTCODE": "0880", "POLLINGPLACEID": "15186" }, "geometry": { "type": "Point", "coordinates": [ -92.406392827098401, 47.654035728561674 ] } },
{ "type": "Feature", "properties": { "OBJECTID": 141, "NAME": "Pilgrim Congregational Church", "FULLADD": "2310 E 4TH ST", "CITY": "Duluth", "STATE": "MN", "PRECINCTCODE": "0180", "POLLINGPLACEID": "15187" }, "geometry": { "type": "Point", "coordinates": [ -92.073104379711438, 46.811716558752657 ] } },
{ "type": "Feature", "properties": { "OBJECTID": 142, "NAME": "Mail Ballot Precinct - Prairie Lake Twp", "FULLADD": "100 N 5TH AVE W, #214", "CITY": "Duluth", "STATE": "MN", "PRECINCTCODE": "0890", "POLLINGPLACEID": "32029" }, "geometry": { "type": "Point", "coordinates": [ -92.106615349170198, 46.78353061944636 ] } },
{ "type": "Feature", "properties": { "OBJECTID": 143, "NAME": "Proctor Community Center", "FULLADD": "100 PIONK DR", "CITY": "Proctor", "STATE": "MN", "PRECINCTCODE": "0895", "POLLINGPLACEID": "26497" }, "geometry": { "type": "Point", "coordinates": [ -92.226217640851843, 46.742653134159944 ] } },
{ "type": "Feature", "properties": { "OBJECTID": 144, "NAME": "Washington Center (Gym)", "FULLADD": "310 N 1ST AVE W", "CITY": "Duluth", "STATE": "MN", "PRECINCTCODE": "0230", "POLLINGPLACEID": "30617" }, "geometry": { "type": "Point", "coordinates": [ -92.102713929837947, 46.788741589902735 ] } },
{ "type": "Feature", "properties": { "OBJECTID": 145, "NAME": "Rice Lake City Hall", "FULLADD": "4107 W BEYER RD", "CITY": "Rice Lake", "STATE": "MN", "PRECINCTCODE": "0910", "POLLINGPLACEID": "15351" }, "geometry": { "type": "Point", "coordinates": [ -92.112055657902005, 46.895375567350911 ] } },
{ "type": "Feature", "properties": { "OBJECTID": 146, "NAME": "Salem Lutheran Church", "FULLADD": "4715 HERMANTOWN RD", "CITY": "Hermantown", "STATE": "MN", "PRECINCTCODE": "0605", "POLLINGPLACEID": "15462" }, "geometry": { "type": "Point", "coordinates": [ -92.176556539876017, 46.789882827949143 ] } },
{ "type": "Feature", "properties": { "OBJECTID": 147, "NAME": "Sand Lake Chapel", "FULLADD": "9038 BISS RD", "CITY": "Britt", "STATE": "MN", "PRECINCTCODE": "0970", "POLLINGPLACEID": "15472" }, "geometry": { "type": "Point", "coordinates": [ -92.641585632846585, 47.660436721711669 ] } },
{ "type": "Feature", "properties": { "OBJECTID": 148, "NAME": "Sandy Town Hall", "FULLADD": "7580 HILL RD", "CITY": "Virginia", "STATE": "MN", "PRECINCTCODE": "0915", "POLLINGPLACEID": "15476" }, "geometry": { "type": "Point", "coordinates": [ -92.486992629993154, 47.667672941854953 ] } },
{ "type": "Feature", "properties": { "OBJECTID": 149, "NAME": "Shepherd of the Hills Lutheran Church", "FULLADD": "802 MAPLE GROVE RD", "CITY": "Duluth", "STATE": "MN", "PRECINCTCODE": "0265", "POLLINGPLACEID": "30618" }, "geometry": { "type": "Point", "coordinates": [ -92.148618559357018, 46.806871062646159 ] } },
{ "type": "Feature", "properties": { "OBJECTID": 150, "NAME": "Solway Town Hall", "FULLADD": "4029 MUNGER SHAW RD", "CITY": "Cloquet", "STATE": "MN", "PRECINCTCODE": "0920", "POLLINGPLACEID": "15602" }, "geometry": { "type": "Point", "coordinates": [ -92.345112465853774, 46.802854036943259 ] } },
{ "type": "Feature", "properties": { "OBJECTID": 151, "NAME": "St Paul's Church", "FULLADD": "9808 HWY 22", "CITY": "Angora", "STATE": "MN", "PRECINCTCODE": "0005", "POLLINGPLACEID": "26354" }, "geometry": { "type": "Point", "coordinates": [ -92.730216511106789, 47.783285911531756 ] } },
{ "type": "Feature", "properties": { "OBJECTID": 152, "NAME": "St. Archangel Michael's Orthodox Church", "FULLADD": "710 E 40TH ST", "CITY": "Hibbing", "STATE": "MN", "PRECINCTCODE": "0630", "POLLINGPLACEID": "31805" }, "geometry": { "type": "Point", "coordinates": [ -92.930405131968939, 47.401952298210055 ] } },
{ "type": "Feature", "properties": { "OBJECTID": 153, "NAME": "St. Lawrence Church", "FULLADD": "2410 MORRIS THOMAS RD", "CITY": "Duluth", "STATE": "MN", "PRECINCTCODE": "0275", "POLLINGPLACEID": "15700" }, "geometry": { "type": "Point", "coordinates": [ -92.15683368329492, 46.778045109065019 ] } },
{ "type": "Feature", "properties": { "OBJECTID": 154, "NAME": "Mail Ballot Precinct - Ness Twp", "FULLADD": "100 N 5TH AVE W, #214", "CITY": "Duluth", "STATE": "MN", "PRECINCTCODE": "0840", "POLLINGPLACEID": "31753" }, "geometry": { "type": "Point", "coordinates": [ -92.106615349170198, 46.78353061944636 ] } },
{ "type": "Feature", "properties": { "OBJECTID": 155, "NAME": "St. Michael's Catholic Church", "FULLADD": "4901 E SUPERIOR ST", "CITY": "Duluth", "STATE": "MN", "PRECINCTCODE": "0140", "POLLINGPLACEID": "15719" }, "geometry": { "type": "Point", "coordinates": [ -92.025191941888437, 46.831773454784489 ] } },
{ "type": "Feature", "properties": { "OBJECTID": 156, "NAME": "Stoney Brook Town Hall", "FULLADD": "8707 PINE DR", "CITY": "Cloquet", "STATE": "MN", "PRECINCTCODE": "0925", "POLLINGPLACEID": "15787" }, "geometry": { "type": "Point", "coordinates": [ -92.597865636413829, 46.781290639121167 ] } },
{ "type": "Feature", "properties": { "OBJECTID": 157, "NAME": "Sturgeon Town Hall", "FULLADD": "9075 HWY 73", "CITY": "Angora", "STATE": "MN", "PRECINCTCODE": "0930", "POLLINGPLACEID": "15800" }, "geometry": { "type": "Point", "coordinates": [ -92.869215090732283, 47.774625905934158 ] } },
{ "type": "Feature", "properties": { "OBJECTID": 158, "NAME": "Toivola Community Center", "FULLADD": "9063 HWY 5", "CITY": "Toivola", "STATE": "MN", "PRECINCTCODE": "0935", "POLLINGPLACEID": "15875" }, "geometry": { "type": "Point", "coordinates": [ -92.811651262656639, 47.164390992982348 ] } },
{ "type": "Feature", "properties": { "OBJECTID": 159, "NAME": "Tower Civic Center", "FULLADD": "402 PINE ST", "CITY": "Tower", "STATE": "MN", "PRECINCTCODE": "0940", "POLLINGPLACEID": "13342" }, "geometry": { "type": "Point", "coordinates": [ -92.278683915417375, 47.804829972834405 ] } },
{ "type": "Feature", "properties": { "OBJECTID": 160, "NAME": "UMD Kirby Student Center", "FULLADD": "1120 KIRBY DR", "CITY": "Duluth", "STATE": "MN", "PRECINCTCODE": "0190", "POLLINGPLACEID": "16093" }, "geometry": { "type": "Point", "coordinates": [ -92.085448259688619, 46.818031119497661 ] } },
{ "type": "Feature", "properties": { "OBJECTID": 161, "NAME": "Unitarian Universalist Congregation of Duluth", "FULLADD": "835 W COLLEGE ST", "CITY": "Duluth", "STATE": "MN", "PRECINCTCODE": "0200", "POLLINGPLACEID": "26664" }, "geometry": { "type": "Point", "coordinates": [ -92.096246649832779, 46.81566277193928 ] } },
{ "type": "Feature", "properties": { "OBJECTID": 162, "NAME": "Van Buren Town Hall", "FULLADD": "6557 HWY 73", "CITY": "Floodwood", "STATE": "MN", "PRECINCTCODE": "1030", "POLLINGPLACEID": "16135" }, "geometry": { "type": "Point", "coordinates": [ -92.910245599852544, 46.986580720349359 ] } },
{ "type": "Feature", "properties": { "OBJECTID": 163, "NAME": "Vermilion Lake Town Hall", "FULLADD": "6703 Wahlsten", "CITY": "Tower", "STATE": "MN", "PRECINCTCODE": "1035", "POLLINGPLACEID": "32515" }, "geometry": { "type": "Point", "coordinates": [ -92.394201234765788, 47.729900941358174 ] } },
{ "type": "Feature", "properties": { "OBJECTID": 164, "NAME": "Vineyard Christian Fellowship", "FULLADD": "1533 W ARROWHEAD RD", "CITY": "Duluth", "STATE": "MN", "PRECINCTCODE": "0195", "POLLINGPLACEID": "30614" }, "geometry": { "type": "Point", "coordinates": [ -92.105284617121185, 46.824471842615715 ] } },
{ "type": "Feature", "properties": { "OBJECTID": 165, "NAME": "Waasa Town Hall", "FULLADD": "3795 HWY 21", "CITY": "Embarrass", "STATE": "MN", "PRECINCTCODE": "1125", "POLLINGPLACEID": "16173" }, "geometry": { "type": "Point", "coordinates": [ -92.085637869648878, 47.687858960444125 ] } },
{ "type": "Feature", "properties": { "OBJECTID": 166, "NAME": "Mail Ballot Precinct - Willow Valley Twp", "FULLADD": "100 N 5TH AVE W, #214", "CITY": "Duluth", "STATE": "MN", "PRECINCTCODE": "1140", "POLLINGPLACEID": "31795" }, "geometry": { "type": "Point", "coordinates": [ -92.106615349170198, 46.78353061944636 ] } },
{ "type": "Feature", "properties": { "OBJECTID": 167, "NAME": "Winton Community Building", "FULLADD": "102 N MAIN ST", "CITY": "Winton", "STATE": "MN", "PRECINCTCODE": "1145", "POLLINGPLACEID": "16335" }, "geometry": { "type": "Point", "coordinates": [ -91.80005366197517, 47.925327825056819 ] } },
{ "type": "Feature", "properties": { "OBJECTID": 168, "NAME": "Woodland Commnuity Club", "FULLADD": "3211 ALLENDALE AVE", "CITY": "Duluth", "STATE": "MN", "PRECINCTCODE": "0165", "POLLINGPLACEID": "16353" }, "geometry": { "type": "Point", "coordinates": [ -92.080025799659268, 46.842676720431925 ] } },
{ "type": "Feature", "properties": { "OBJECTID": 169, "NAME": "Wuori Town Hall", "FULLADD": "7449 WERNER RD", "CITY": "Virginia", "STATE": "MN", "PRECINCTCODE": "1150", "POLLINGPLACEID": "16372" }, "geometry": { "type": "Point", "coordinates": [ -92.476867207933736, 47.622628627824966 ] } },
{ "type": "Feature", "properties": { "OBJECTID": 170, "NAME": "Breitung Community Center", "FULLADD": "33 1ST AVE", "CITY": "Soudan", "STATE": "MN", "PRECINCTCODE": "0066", "POLLINGPLACEID": "16043" }, "geometry": { "type": "Point", "coordinates": [ -92.23672694701267, 47.817411358373924 ] } },
{ "type": "Feature", "properties": { "OBJECTID": 172, "NAME": "Gary New Duluth Recreation Center", "FULLADD": "801 101ST AVE W", "CITY": "Duluth", "STATE": "MN", "PRECINCTCODE": null, "POLLINGPLACEID": "15792" }, "geometry": { "type": "Point", "coordinates": [ -92.228266193571855, 46.665076287207782 ] } }
]
}
